{"type":"FeatureCollection","features":[{"type":"Feature","properties":{"City":"Nairobi","Population":"4, 300, 000"},"geometry":{"coordinates":[36.80617598261199,-1.2868825246637812],"type":"Point"}},{"type":"Feature","properties":{"City":"Kisumu","Population":"610, 082"},"geometry":{"coordinates":[34.738718987625106,-0.10390483386935045],"type":"Point"}},{"type":"Feature","properties":{"City":"Mombasa","Population":"1, 440, 000"},"geometry":{"coordinates":[39.65031808498168,-4.043641408174366],"type":"Point"}},{"type":"Feature","properties":{"City":"Nakuru","Population":"422, 000"},"geometry":{"coordinates":[36.07147480794731,-0.2699442205197329],"type":"Point"}},{"type":"Feature","properties":{"City":"Nyeri","Population":"759, 164"},"geometry":{"coordinates":[36.94463803936628,-0.41029938381178965],"type":"Point"}},{"type":"Feature","properties":{"City":"Machakos","Population":"1, 422, 000"},"geometry":{"coordinates":[37.26455748025583,-1.5266409938907657],"type":"Point"}},{"type":"Feature","properties":{"City":"Malindi","Population":"119, 859"},"geometry":{"coordinates":[40.118430802816334,-3.2158692371533135],"type":"Point"}}]}